,name,population,latitude,longitude
0,urzuf,2904,46.91562,37.09961
1,zuhres,19121,48.0114,38.26444
2,zolochiv,22608,49.80597,24.89436
3,zhydachiv,0,49.38468,24.14254
4,kovyl’noye,783,45.69028,33.52775
5,druzhkivka,62315,48.63013,37.55259
6,zolotonosha,27722,49.66832,32.04047
7,staryy dobrotvir,6436,50.23154,24.37701
8,ivano-frankove,6223,49.91978,23.72913
9,vasylivka,15012,47.43694,35.27417
10,zoryns’k,7532,48.41194,38.62361
11,lebedyn,27695,50.58518,34.4849
12,olenevka,1441,45.38333,32.53333
13,zuya,6230,45.05418,34.32152
14,zybiny,1220,45.23674,34.64987
15,zorkino,1099,45.54762,34.71028
16,zvenihorodka,19161,49.07866,30.96755
17,zolotoye pole,2543,45.12774,34.99148
18,zolochiv,11160,50.27985,35.98179
19,zolotyy potik,2343,48.9095,25.33926
20,znomenka,28318,48.71278,32.66472
21,zhuravki,2666,45.12629,35.21513
22,zlynka,4981,48.48521,31.53906
23,zhvanets,1529,48.54968,26.48744
24,zmiyiv,16095,49.67453,36.34775
25,zhytomyr,282192,50.26487,28.67669
26,zhemchuzhina,971,45.27466,34.65778
27,zelyonoye,280,44.59583,34.00921
28,zgurovka,6369,50.50276,31.78492
29,zhuravka,2900,50.48108,32.5949
30,blahodatne,4652,50.66365,24.24918
31,zimino,1000,45.50797,33.51431
32,zhashkiv,15264,49.24545,30.1102
33,zin’kiv,10393,50.20806,34.36376
34,zhmerynka,35960,49.03705,28.11201
35,zhovkva,12973,50.05825,23.9726
36,zernovoye,1023,45.32364,34.48099
37,zhelyabovka,2669,45.39877,34.75776
38,zemlyanichnoye,660,44.97444,34.83553
39,zhovti vody,51559,48.34493,33.50374
40,zelenogorskoye,1877,45.01249,34.46848
41,zavetnoye,1628,45.32697,34.80837
42,zavallya,5010,48.21354,30.01558
43,zavetnoye,1175,45.12305,36.39965
44,zarichchya,3832,48.52144,24.64857
45,karolino-buhaz,2241,46.14492,30.52609
46,zavet-leninskiy,2222,45.86258,34.3916
47,zdovbytsya,4858,50.49607,26.24111
48,zdolbuniv,23697,50.5206,26.24251
49,zboriv,7159,49.66484,25.14097
50,zatyshshya,3900,47.33351,29.87327
51,zatoka,1391,46.07251,30.46538
52,zbarazh,12736,49.66357,25.77616
53,zastavna,8536,48.52307,25.84369
54,zorya,5243,45.9908,29.69672
55,zarichne,6671,51.8126,26.12902
56,zarechnoye,2022,44.85048,34.26426
57,zaozyornoye,4332,45.15816,33.27866
58,zaporizhia,796217,47.82289,35.19031
59,zarechnoye,1820,45.73636,34.48345
60,zheleznyy port,1528,46.11667,32.28333
61,zaliznychne,3343,45.7489,28.61466
62,zahvizdya,3546,48.91836,24.65275
63,zaliznychne,1206,47.65238,36.16524
64,zalesnoye,2539,48.03104,38.80934
65,yur”yivka,0,48.73748,36.01987
66,zachepylivka,4217,49.19385,35.23943
67,yurkivka,2887,49.01256,31.10125
68,zakupne,1398,49.11944,26.33756
69,yevpatoriya,106202,45.20091,33.36655
70,yuzhne,25000,46.62211,31.10131
71,zagnitkiv,4000,48.04878,28.89234
72,zaliztsi,2612,49.79188,25.37297
73,yemil’chyne,0,50.87349,27.80604
74,zabolotiv,4029,48.47054,25.28571
75,yemelyanovka,1374,45.53287,34.89624
76,zalishchyky,9749,48.64331,25.73794
77,yerky,4159,48.99062,30.98818
78,yenakiyeve,104101,48.23331,38.21137
79,yermakovo,909,45.85364,34.48644
80,yasinya,7708,48.27937,24.36042
81,yavoriv,13008,49.93864,23.38254
82,l’govskoye,1605,45.09801,34.9577
83,yelanets’,0,47.69682,31.85253
84,yarkoye,1807,45.6912,34.26323
85,yampil’,0,48.2424,28.28195
86,yelyzavethradka,1673,48.80381,32.4046
87,yamnytsya,3223,48.98972,24.7075
88,yarmolyntsi,8583,49.19236,26.83725
89,yaremche,7558,48.45157,24.55436
90,yarkoye pole,948,45.61293,34.31834
91,yalta,5519,46.96279,37.27365
92,yalta,77003,44.50218,34.16624
93,yabluniv,1798,48.40418,24.93874
94,vyshchetarasivka,3651,47.56851,34.88096
95,yasynuvata,37600,48.1298,37.8594
96,yahil’nytsya,1314,48.94248,25.74375
97,yampil’,7200,51.94765,33.78759
98,yablunytsya,1986,48.31742,24.48448
99,yahotyn,22779,50.27975,31.76246
100,vysokyy,10988,49.89156,36.12175
101,vradiyivka,9578,47.86195,30.59195
102,dneprovka,2068,45.71373,34.36256
103,vvedenka,2628,49.82372,36.50264
104,vylkove,8916,45.40214,29.58595
105,voykovo,1694,45.51222,33.87482
106,voznesenka,4917,46.87165,35.46458
107,voykovo,4284,45.38329,36.43739
108,vyshhorod,22080,50.58476,30.4898
109,vyshkovo,7838,48.04911,23.42113
110,voyutychi,2099,49.55135,23.10579
111,vylok,3292,48.10915,22.83865
112,voronkov,4000,50.22235,30.89967
113,voronovytsya,6389,49.10954,28.68078
114,vorozhba,7915,51.17334,34.21917
115,vysokopillya,4542,47.49187,33.53061
116,vorokhta,3853,48.28459,24.56536
117,vynohradiv,27600,48.14135,23.02666
118,voznesensk,42248,47.56494,31.33078
119,vorzel’,8500,50.5444,30.15305
120,volovets,5177,48.7109,23.1851
121,vovchans’k,19486,50.29078,36.94108
122,volnovakha,23731,47.60103,37.49674
123,volodarka,7355,49.52484,29.91222
124,voloka,2915,48.19225,25.93074
125,volodars’ke,0,47.20533,37.32139
126,khoroshiv,0,50.59764,28.443
127,vodyane,5685,47.48746,34.49235
128,vorobyovo,1085,45.32895,33.24654
129,vil’ne,5432,47.63645,34.81387
130,volodymyr-volynskyi,38256,50.85253,24.32364
131,volochysk,0,49.53748,26.21568
132,voinka,4089,45.8699,33.99138
133,volodymyrets’,8537,51.4213,26.14469
134,vishennoye,1753,45.14509,34.59691
135,vladislavovka,3324,45.16828,35.37658
136,vyshneve,2467,48.43611,33.91556
137,vyshneve,33183,50.38913,30.3705
138,vyzhnytsya,4834,48.24801,25.19452
139,vishnyovka,995,45.95966,33.95289
140,vinogradnoye,1044,45.29332,35.84451
141,verkhovyna,5290,48.15571,24.79112
142,veseloye,1675,44.85807,34.87952
143,verchnia rozhanka,1134,48.7805,23.51545
144,vinogradovo,881,45.39264,33.64668
145,vinkivtsi,0,49.03462,27.23617
146,vynohradivka,3110,45.68119,28.57138
147,vinogradnoye,1494,44.48149,34.12973
148,vynohradove,4422,46.36957,32.9398
149,vilino,6960,44.8456,33.67161
150,verkhniachka,4130,48.82849,30.03957
151,veselynove,6997,47.35666,31.23488
152,vinnytsia,352115,49.23278,28.48097
153,vil’nyans’k,0,47.94381,35.43539
154,verkhorechye,1126,44.69738,33.98696
155,verkhnya syrovatka,3669,50.82902,34.95861
156,vesele,10683,47.01479,34.91504
157,veselovka,1390,45.37733,33.21385
158,verkhniy yasenov,1205,48.16156,24.94532
159,verkhnyaya belka,1508,49.81575,24.30328
160,verkhnie synevydne,3555,49.10307,23.59099
161,verkhniy rohachyk,6557,47.25053,34.33797
162,verkhn’odniprovs’k,0,48.65242,34.33457
163,velykoploske,3192,47.01254,29.67171
164,verblyany,2000,50.04747,23.42189
165,veresayevo,1708,45.30551,33.50004
166,verbivka,3377,49.41667,35.53333
167,verkhnesadovoye,2331,44.68932,33.70207
168,vendychany,4182,48.61176,27.79324
169,velikiye borki,3141,49.52363,25.75753
170,velykyy klyuchiv,3290,48.47092,24.94677
171,velyki sorochyntsi,4050,50.02314,33.94144
172,velykyi bereznyi,7078,48.88831,22.46052
173,verenchanka,3560,48.54653,25.74533
174,velyki kopani,5464,46.48684,32.97498
175,velyka pysarivka,5235,50.4243,35.47989
176,velyka novosilka,0,47.84531,36.83534
177,velyka mykhaylivka,5777,47.07971,29.85753
178,velyka lepetykha,9511,47.17572,33.94362
179,velykyy burluk,4821,50.0617,37.38373
180,velyka dymerka,9606,50.59333,30.90313
181,velyka bilozerka,3511,47.27756,34.70616
182,velyka oleksandrivka,7281,47.31969,33.30373
183,vasilyevka,1331,45.13938,34.72291
184,velyka bahachka,5707,49.79116,33.72258
185,vapnyarka,8443,48.53479,28.74358
186,vasyshcheve,5862,49.82852,36.32691
187,uzhgorod,117878,48.61667,22.3
188,batiovo,3046,48.36166,22.3997
189,vasylkiv,39700,50.18693,30.31346
190,varvarivka,1912,49.53786,35.20086
191,vatutine,19407,49.01502,31.06211
192,vary,2998,48.12207,22.71281
193,vasyl’kivka,0,48.20698,36.02365
194,vashkivtsi,5764,48.38491,25.51023
195,uyutnoye,4745,45.19769,33.29796
196,valky,10099,49.83597,35.61223
197,varva,8549,50.49503,32.71968
198,uvarovo,855,45.2626,35.66506
199,uzyn,12726,49.82619,30.41487
200,uspenka,9400,48.39077,39.16284
201,utkivka,1272,49.78583,36.07528
202,uralo-kavkaz,3033,48.3211,39.80302
203,usatove,7732,46.53296,30.6596
204,urozhaynoye,1119,45.33625,35.06865
205,blahovishchens’ke,0,48.33105,30.22702
206,ustynivka,4003,47.95507,32.53674
207,uman’,87658,48.74838,30.22184
208,ulaniv,3038,49.69512,28.13298
209,ulychne,3671,49.23385,23.65111
210,ukromnoye,4567,45.04272,34.00312
211,vuhlehirs’k,9926,48.31474,38.27423
212,ukrainka,2539,44.8873,34.13973
213,ukrainka,13636,50.14317,30.74612
214,nyzhni petrivtsi,2887,48.02847,25.72327
215,uhryniv,3090,48.9552,24.69292
216,uglovoye,3334,44.82146,33.60452
217,tyvriv,0,49.01404,28.50846
218,tysmenytsya,9426,48.90219,24.84482
219,uhniv,1021,50.36811,23.74895
220,tysmenychany,2944,48.77168,24.66626
221,tukhlia,1826,48.91218,23.47303
222,tselinnoye,900,45.90633,34.18063
223,tsyurupyns’k,28800,46.61842,32.7189
224,tynne,4123,50.60145,26.18486
225,turgenevka,1359,44.69747,33.83007
226,tsvetkovo,1265,49.15231,31.53739
227,tyachiv,9422,48.01179,23.57061
228,turiys’k,0,51.08644,24.52294
229,turbiv,6740,49.34788,28.72117
230,tsybulevka,1888,48.38719,29.10288
231,tsibulev,3751,49.07907,29.84727
232,tsybli,3512,49.99484,31.56281
233,turka,7395,49.15411,23.02967
234,trostyanets’,0,48.50961,29.23482
235,trostyanets’,8151,50.48478,34.96567
236,tsarychanka,7638,48.93697,34.4786
237,tsvetochnoye,2681,45.08655,34.38521
238,tulchyn,16136,48.67448,28.84641
239,truskavets’,26600,49.27837,23.50618
240,troyits’ke,0,49.9145,38.29277
241,tr’okhizbenka,2054,48.75751,38.96333
242,trypillia,3000,50.11802,30.78141
243,toshkivka,4926,48.77914,38.57903
244,torkanivka,1061,48.32462,29.14746
245,trebukhiv,6207,50.48432,30.90304
246,topory,1109,49.65186,29.31741
247,tovste,3382,48.84663,25.72621
248,torez,68037,48.03876,38.59685
249,tomashpil’,0,48.54256,28.51684
250,tomakivka,8006,47.81569,34.74137
251,tokmak,34926,47.25522,35.71238
252,tlumach,0,48.86403,25.00325
253,tokarevo,831,45.28367,35.15244
254,tyshkivka,3368,48.49665,30.94229
255,tetiiv,14388,49.3767,29.66474
256,tymoshivka,2975,47.1841,35.11625
257,ternovka,1843,44.57922,33.75105
258,terpinnya,4656,46.96942,35.421
259,terny,3661,50.98916,33.9707
260,ternuvate,1510,47.83049,36.12761
261,talne,16388,48.88877,30.69482
262,talalayivka,0,50.83913,33.14374
263,teofipol,0,49.83818,26.41433
264,tel’manove,4577,47.40994,38.02476
265,teplyk,6604,48.66566,29.74504
266,tarashcha,12952,49.55832,30.49259
267,teplovka,1755,45.03239,33.69588
268,tarutyne,5988,46.18636,29.15203
269,tenistoye,1211,44.74303,33.66812
270,tankovoye,1639,44.65829,33.80929
271,tatarbunary,10396,45.83731,29.61424
272,maslovo,2222,45.79197,34.36298
273,tarakaniv,1634,50.37961,25.70843
274,sary-bash,835,45.57142,33.78728
275,tabachnoye,1287,45.61257,34.61497
276,ternopil,235676,49.55342,25.58918
277,terebovlya,13153,49.30187,25.70997
278,talalayivka,5054,50.95783,31.92085
279,klepinino,1966,45.528,34.18315
280,svityaz’,1845,51.48211,23.85904
281,svarychiv,4845,48.9622,24.19658
282,surs’ko-mykhaylivka,2552,48.27202,34.72759
283,tabachnoye,1597,44.90175,33.67638
284,subottsi,3095,48.65545,32.52093
285,svyatogorsk,4900,49.03333,37.56667
286,syevyerodonets’k,130000,48.94832,38.49166
287,svetloye,1608,45.6332,34.66264
288,svitlovods’k,47946,49.04894,33.24106
289,svatove,18770,49.41029,38.15035
290,sverdlovs’k,68000,48.08964,39.65243
291,svalyava,16507,48.54853,22.99578
292,svetlodarsk,12273,48.43374,38.22331
293,sumy,294456,50.9216,34.80029
294,susanino,800,45.49898,33.69854
295,suvorovskoye,3200,45.25171,33.37194
296,sutysky,6111,49.04245,28.41733
297,sudova vyshnya,6420,49.78892,23.37218
298,sukhovolya,3612,49.82426,23.8377
299,sudak,16597,44.84924,34.97471
300,stryi,61404,49.26223,23.85609
301,botanicheskoye,1661,45.78656,33.54856
302,strabychovo,3255,48.39247,22.54308
303,strogonovka,3337,44.9497,34.17924
304,stolbovoye,1082,45.3627,33.49584
305,storozhynets’,0,48.1643,25.72029
306,stepanivka,1720,46.79489,29.98684
307,stavyshche,0,49.39124,30.19022
308,stayki,2203,50.07818,30.9038
309,stebnyk,20087,49.29416,23.56357
310,studenok,1440,49.09107,37.48697
311,stizhkivs’ke,4480,48.11333,38.4925
312,staryy sambir,5603,49.43856,23.00056
313,stetseva,3076,48.52767,25.57572
314,staryy merchyk,1709,49.98147,35.75904
315,steblëv,3859,49.40186,31.09764
316,staryy saltiv,3776,50.07619,36.78852
317,stavyshche,7634,50.40051,29.52796
318,storozhnytsya,2623,48.60403,22.23269
319,stepnoye,1461,45.65212,33.77441
320,staryy krym,5977,47.16146,37.48934
321,starokozache,5108,46.33722,29.98528
322,stanislav,4726,46.56909,32.14777
323,staroye selo,2119,49.71037,24.1895
324,starobil’s’k,22000,49.27832,38.91069
325,starokostiantyniv,33897,49.75764,27.20342
326,stari kuty,5068,48.27093,25.17293
327,stary krym,9370,45.02887,35.09174
328,stara syniava,5771,49.60318,27.61909
329,starobesheve,6917,47.75038,38.03051
330,stanytsya luhans’ka,12765,48.65433,39.47943
331,stakhanovka,857,45.37062,33.94883
332,stara vyzhivka,5466,51.43762,24.43997
333,stari bohorodchany,3426,48.83361,24.5243
334,starychi,3293,49.98001,23.55848
335,stal’noye,1125,45.70814,34.56238
336,stakhanov,84425,48.56818,38.64352
337,serednye vodyane,5465,47.98159,23.91041
338,sribne,3534,50.66384,32.91867
339,serednye,3505,48.54043,22.50696
340,spas’ke,3017,48.66667,35.05385
341,sosnytsya,7825,51.52387,32.49985
342,solotvyno,8931,47.94604,23.87035
343,spas,2976,48.88992,24.06293
344,sovetskiy,10410,45.34267,34.92463
345,solonytsivka,12378,49.99682,36.03464
346,solone,7304,48.20805,34.87208
347,solotvyn,3803,48.70212,24.42212
348,sokal’,21451,50.47438,24.28288
349,solnechnaya dolina,1526,44.87185,35.10622
350,sokyryany,9877,48.44747,27.41678
351,sofiyivka,8017,48.04865,33.87618
352,sniatyn,10089,48.44692,25.56937
353,solnechnogorskoye,1150,44.74722,34.53999
354,sokolinoye,1251,44.55041,33.95897
355,ilyinka,1140,45.81784,33.79482
356,sobolivka,3605,49.33604,28.65096
357,solonka,3391,49.75621,24.01028
358,snihurivka,14873,47.07579,32.80516
359,sofyevka,3481,45.08985,33.99887
360,snizhne,55587,48.02612,38.77225
361,slatyne,6544,50.21041,36.15376
362,skvyra,17452,49.73177,29.66569
363,slavuta,33080,50.30155,26.86506
364,slobidka,2530,47.88694,29.34611
365,sloviansk,124800,48.86667,37.61667
366,slov`yanoserbsk,8065,48.69779,38.98133
367,slavyanskoye,1194,45.72768,33.32165
368,slavske,6436,48.84734,23.44587
369,smila,67530,49.22242,31.88714
370,sloboda,2949,51.19806,33.60695
371,slavnoye,914,45.72176,33.23689
372,skelivka,1062,49.53728,22.96467
373,skole,6491,49.03717,23.51346
374,skala-podil’s’ka,4255,48.85149,26.19909
375,skhidnytsya,2257,49.22827,23.35016
376,skalistoye,2997,44.81686,33.97791
377,skvortsovo,2517,45.07542,33.82084
378,skalat,3886,49.42732,25.97869
379,skadovs’k,19404,46.1161,32.91124
380,sizovka,1814,45.34892,33.87669
381,simeiz,2604,44.40646,34.00704
382,shpola,18689,49.00687,31.39471
383,synevyr,4623,48.48745,23.62575
384,shostka,85432,51.86296,33.4698
385,shyshaky,5671,49.88175,34.01118
386,synel’nykove,31900,48.32044,35.51792
387,shturmovoye,1535,44.56767,33.62245
388,synevyrska poliana,1355,48.58484,23.6891
389,sholokhove,3097,47.69453,34.03119
390,shumsk,0,50.12157,26.11424
391,simferopol,336460,44.95719,34.11079
392,partizany,1487,45.14373,35.15509
393,shyryayeve,7018,47.38052,30.19638
394,shypyntsi,2937,48.37677,25.74664
395,shklo,5164,49.95675,23.54408
396,shyroke,1001,47.95711,38.2316
397,pshenichnoye,868,45.64627,34.83767
398,shyroke,10920,47.69173,33.25715
399,shevchenkove,7090,49.69585,37.17348
400,shelkovichnoye,1357,45.18748,33.68807
401,shchyrets’,5733,49.65096,23.87426
402,shevchenkove,5362,45.55604,29.33357
403,shalyhyne,3031,51.57167,34.12167
404,serpneve,1768,46.30094,29.01958
405,shevchenkove,3031,46.86289,32.20387
406,shepetivka,46419,50.18545,27.06365
407,sheshory,1984,48.33197,24.98329
408,shcherbynivka,3868,48.39489,37.79102
409,shchebetovka,3442,44.93821,35.158
410,shchors,11857,51.81865,31.94504
411,shats’k,5708,51.50208,23.93806
412,shakhtars’k,71700,48.05657,38.43826
413,shabo,6886,46.13262,30.38595
414,serhiyivka,5045,46.0272,30.37682
415,sharhorod,6895,48.73835,28.08497
416,sivers’k,13900,48.86699,38.10007
417,seredyna-buda,7161,52.18903,34.03639
418,serebryanka,1111,48.91917,38.13494
419,sevastopol,416263,44.58883,33.5224
420,serebryanka,833,45.63937,33.49632
421,serebriya,2906,48.45593,27.71923
422,sedniv,1222,51.64473,31.56497
423,selydove,24269,48.14708,37.30032
424,semenivka,9320,52.17827,32.58183
425,savran,7000,48.13219,30.08247
426,sakhnovshchyna,8188,49.15166,35.87198
427,syedove,2667,47.07678,38.15602
428,shchastya,13800,48.73963,39.2323
429,saki,28322,45.13424,33.59996
430,sencha,2953,50.25482,33.34602
431,simeykyne,2493,48.32643,39.53366
432,semypolky,2939,50.72627,30.93441
433,sarata,5035,46.01966,29.66567
434,semenivka,7305,49.59031,33.18049
435,sarny,27097,51.33795,26.60191
436,savyntsi,5326,49.40257,37.06266
437,silets’,3641,50.29712,24.20462
438,semisotka,1583,45.24676,35.565
439,sambir,35197,49.5183,23.19752
440,sadzhavka,3278,48.56603,24.7882
441,rybach'e,1414,44.77331,34.59609
442,ruch’i,1047,45.78564,33.66093
443,rzhyshchiv,7993,49.96886,31.04628
444,rusakovka,918,45.12369,34.47458
445,sadovoye,2874,45.31037,34.6526
446,rudne,6016,49.83333,23.9
447,rozivka,4197,46.9394,35.77207
448,rykhtychi,3115,49.38511,23.55662
449,russkaya polyana,7780,49.417,31.92009
450,rozhyshche,13280,50.91542,25.26906
451,rubizhne,62993,49.01229,38.37967
452,rozhniv,5351,48.36597,25.2258
453,rybakivka,1640,46.61712,31.34995
454,rozivka,0,47.38484,37.06792
455,rozhnyativ,3983,48.93576,24.16379
456,rozvadiv,3098,49.50323,23.962
457,rozdil,2892,49.46144,24.0623
458,ruzhyn,4993,49.7228,29.20455
459,rudky,4912,49.65306,23.48702
460,rozkishne,6205,48.48959,39.27881
461,rivne,5296,48.24742,31.75432
462,roskoshnyy,3140,49.37087,30.18471
463,roven’ky,53600,48.08331,39.37764
464,rozdil’na,17615,46.84334,30.07919
465,ropcha,3189,48.11988,25.77421
466,romashkino,1427,45.25647,33.25517
467,romny,48570,50.75104,33.47471
468,roskoshnoye,559,45.65187,34.11552
469,romodan,3225,49.99055,33.32506
470,rodyns’ke,11550,48.35199,37.20602
471,rodnikovo,3492,45.04296,33.95407
472,rokosovo,4544,48.21018,23.17624
473,rokytne,11726,51.2796,27.214
474,rohatyn,8287,49.409,24.60927
475,reshetylivka,9336,49.56501,34.07815
476,ripky,7708,51.80105,31.08383
477,rodatychi,1912,49.79862,23.53336
478,rivne,255106,50.62308,26.22743
479,reni,19719,45.45727,28.29317
480,richky,1319,50.27706,23.64617
481,rechka,2075,48.28034,24.9333
482,razdol’noye,7326,45.77083,33.48777
483,rakiv lis,2958,51.62174,24.92427
484,rakoshyno,3145,48.46713,22.59687
485,rava-rus’ka,8328,50.23079,23.62825
486,piatykhatky,20459,48.41333,33.71056
487,putyla,0,47.98869,25.09455
488,rokytne,0,49.68665,30.47384
489,pyatikhatka,2375,45.32347,34.25516
490,radens’k,3972,46.5486,32.92787
491,ralivka,3926,49.49982,23.23739
492,rozsypne,4911,48.14966,38.57619
493,radomyshl,15252,50.49613,29.22911
494,radekhiv,0,50.28249,24.64279
495,pustomyty,9434,49.71532,23.91295
496,rakhiv,14674,48.0526,24.20089
497,radcha,2927,48.85023,24.65502
498,ratne,9081,51.6683,24.5303
499,putyvl’,20000,51.33745,33.87066
500,prudy,1876,45.23922,34.70217
501,pukhivka,1996,50.6097,30.7177
502,privetnoye,1867,44.82145,34.67935
503,pushkino,1098,45.20373,34.97642
504,potelych,2500,50.20804,23.54674
505,pryluky,62823,50.59323,32.38761
506,prymors’k,13900,46.73479,36.34425
507,prudyanka,1924,50.23606,36.16835
508,pryyutivka,3238,48.72094,33.07078
509,priozyornoye,3005,45.2699,36.33405
510,pryshyb,3365,47.25927,35.31953
511,prostornoye,635,45.65597,34.69837
512,primorskiy,12560,45.11904,35.48025
513,sartana,10543,47.17436,37.69266
514,pryvillya,8669,49.01501,38.30457
515,privetnoye,2592,45.11969,35.0596
516,pryazovs’ke,0,46.73426,35.64251
517,pravda,1474,45.77903,33.84649
518,prykolotne,2499,50.16273,37.34524
519,preobrazhenka,3550,47.57194,35.81667
520,poninka,7642,50.18492,27.53629
521,pomoriany,1449,49.64092,24.9307
522,pokrovs’ke,0,47.97852,36.2256
523,poroshkovo,3645,48.66832,22.75328
524,popasna,25442,48.63328,38.37804
525,pidkamin’,2128,49.94599,25.31672
526,popil'nya,6109,49.96652,29.44353
527,porohy,3004,48.68755,24.26322
528,pomichna,10539,48.24222,31.41583
529,polyanka,1693,50.25836,27.68809
530,poltava,317847,49.59373,34.54073
531,pokotylivka,9962,49.91343,36.17511
532,polonne,22348,50.12424,27.51087
533,pohrebyshche,10354,49.48639,29.26361
534,pidvolochysk,0,49.53472,26.14585
535,pidhirtsi,1076,49.94611,24.9795
536,pidhorodne,17103,48.57528,35.1068
537,polohy,21380,47.48444,36.25361
538,pidhorodna,2481,48.10704,30.88953
539,pidvynohradiv,4206,48.13947,22.97194
540,pobugskoye,5716,48.16579,30.59274
541,pyryatyn,16089,50.24242,32.50621
542,plodovoye,1090,44.87156,33.85615
543,petrovka,6714,45.49776,34.28816
544,pidhaytsi,3158,49.26853,25.13341
545,pochtovoye,3086,44.8354,33.96159
546,pochaiv,8075,50.00509,25.51183
547,pidbuzh,2739,49.33483,23.24887
548,pnikut,1101,49.71104,23.13826
549,pobednoye,3108,45.70109,34.44805
550,pniv,4443,48.61783,24.52872
551,koktebel,2807,44.96155,35.2466
552,pivdenne,8053,49.88315,36.06785
553,pishcha,1162,51.60928,23.82079
554,plakhtiyivka,5038,46.1006,29.72169
555,pionerskoye,5534,44.88083,34.20194
556,pylypets,1104,48.65899,23.28346
557,petropavlivka,8912,48.45643,36.4367
558,petrove,8252,48.32467,33.25617
559,petrivs’ke,3275,49.17695,36.89999
560,kurisove,4535,46.96951,30.95914
561,petrykivka,4896,48.72933,34.63358
562,pervomays’k,70746,48.04433,30.85073
563,pereval’s’k,29220,48.43779,38.84384
564,piskivka,6889,50.69378,29.61934
565,peschanoye,820,44.84342,33.60921
566,petrikov,3033,49.53122,25.57901
567,pershotravneve,2523,51.39287,28.86837
568,manhush,8153,47.05582,37.31068
569,pervomayskoye,2247,45.11207,34.06478
570,petranka,2929,48.90246,24.30347
571,pervomays’kyy,0,49.38742,36.21471
572,pishchanka,0,48.20727,28.88607
573,pervomayskoye,8470,45.71744,33.85596
574,peschana,3094,48.12918,29.73086
575,pervomays’k,41480,48.62988,38.54806
576,perovo,3890,44.92513,34.05753
577,peresichna,6894,50.02452,35.97871
578,pereyaslav-khmel’nyts’kyy,36527,50.06739,31.44969
579,pereval'noye,3426,44.84838,34.31271
580,perehonivka,3354,48.53552,30.51923
581,partyzany,3738,46.33383,34.75314
582,pantayivka,2918,48.674,32.8841
583,pavlysh,4693,48.91762,33.35691
584,parutyne,1996,46.70538,31.89709
585,pavlovka,3635,49.44143,28.45956
586,ovruch,16398,51.3246,28.80351
587,pechenihy,0,49.87167,36.93472
588,perechyn,7000,48.73616,22.482
589,ovidiopol,11818,46.24998,30.44127
590,pavlivka,1135,49.60864,38.70917
591,ozerna,3451,49.62891,25.32895
592,peremyshlyany,7284,49.66523,24.55846
593,pasichna,4530,48.57152,24.43003
594,panyutyne,7038,48.93692,36.27563
595,partizanskoye,2079,44.83379,34.08465
596,pavlohrad,115932,48.53426,35.87098
597,pechenizhyn,5126,48.51551,24.89423
598,ozerne,5162,45.403,28.67546
599,ozerne,5646,50.17816,28.73384
600,orikhiv,17287,47.56731,35.78575
601,osypenko,4477,46.9136,36.8253
602,otyniya,5205,48.73767,24.86111
603,oster,6794,50.9506,30.88229
604,ostroh,14251,50.32942,26.51425
605,ostrovskoye,1123,45.74232,34.06607
606,onufriyivka,4298,48.90716,33.44869
607,olyshivka,2317,51.22266,31.33314
608,orlovskoye,1014,45.8107,33.97308
609,orlinoye,2106,44.44685,33.77588
610,orzhytsya,3898,49.7901,32.69941
611,ordzhonikidze,0,47.66763,34.05957
612,orativ,3170,49.18889,29.52697
613,onokivtsi,2187,48.65763,22.34183
614,ordzhonikidze,2572,44.96401,35.35576
615,oposhnya,6003,49.95652,34.61226
616,olevs’k,0,51.22482,27.65228
617,ol'shanskoye,4500,47.18411,31.79375
618,olyka,3074,50.71855,25.81251
619,vil’shanka,0,48.23604,30.87608
620,okunevka,522,45.36855,32.76357
621,ochakiv,16300,46.61283,31.54982
622,oktyabr'skoye,1415,45.36215,36.36803
623,oleshnyk,4696,48.16406,22.96167
624,oleksandrivka,10687,48.96336,32.23492
625,nyrkiv,1013,48.81492,25.59989
626,olesko,1800,49.96233,24.89336
627,oleksandriya,103000,48.66961,33.11593
628,oktyabr’skoye,10244,45.28866,34.13521
629,oktyabr’skoye,1192,45.65531,33.94918
630,obukhiv,31557,50.10689,30.61848
631,okhotskoye,1328,45.48612,34.86401
632,odessa,1001558,46.47747,30.73262
633,okhotnikovo,1550,45.23985,33.59405
634,obroshyne,4186,49.78333,23.86667
635,obodivka,3378,48.40514,29.24775
636,novyy yarychiv,2841,49.90444,24.30523
637,obertyn,3264,48.70032,25.17012
638,nuyno,1681,51.54628,24.91018
639,novyy svit,9488,47.80591,38.02112
640,novi petrivtsi,7747,50.62754,30.4431
641,novozhilovka,1679,45.1596,34.2327
642,novi troyany,3992,45.94275,28.85628
643,novi sanzhary,8020,49.34395,34.31084
644,novovasylivka,2724,46.83021,35.75136
645,novyy starodub,4777,48.5158,33.17329
646,novosyolovka,1425,44.99377,33.83525
647,novy svet,1248,44.83087,34.9137
648,nove davydkovo,3853,48.44133,22.62164
649,dubki,2256,44.93581,34.02355
650,novyy buh,15646,47.69308,32.5216
651,novi bilokorovychi,3251,51.11548,28.05463
652,novoukrayinka,18633,48.32635,31.52852
653,novovolyns’k,57800,50.72576,24.16265
654,novovorontsovka,6847,47.50035,33.91748
655,novostepnoye,1523,45.66206,34.387
656,novotroyits’ke,0,46.3556,34.33272
657,novoselovskoye,3179,45.44276,33.59795
658,novoselytsya,8088,48.21931,26.26531
659,novoselytsya,3185,50.0703,27.51955
660,poltavka,1937,45.35133,34.18371
661,novopokrovka,2092,48.05918,34.60619
662,novomoskovs’k,73100,48.63799,35.24548
663,novopokrovka,4841,49.83349,36.54771
664,novopokrovka,1212,45.42198,34.45052
665,novomykolayivka,3860,48.55625,34.37399
666,novonikolayevka,1171,45.30855,36.05749
667,novokrymskoye,1081,45.78007,34.15543
668,novogrigoryevka,1002,45.452,34.60378
669,novopskov,9739,49.5464,39.08987
670,novobohdanivka,3506,47.08524,35.32945
671,novomykolayivka,5568,47.9781,35.9102
672,novomyrhorod,12728,48.78105,31.64204
673,novopavlovka,874,45.86634,33.89018
674,novodonets’ke,5895,48.63526,36.98477
675,novohrad-volynskyi,55925,50.59412,27.6165
676,novofedorivka,5620,46.17128,32.31781
677,novoivanovka,876,45.44914,33.09833
678,novodnistrovs’k,10770,48.58641,27.38152
679,voskhod,4808,45.50999,34.39355
680,novoandreyevka,2778,45.19904,34.09384
681,novhorod-sivers’kyy,14400,52.00577,33.2615
682,novoarkhanhel’s’k,7624,48.65803,30.81821
683,nove-misto,3619,48.98113,29.82813
684,novopokrovka,1350,45.16517,35.25304
685,novooleksiyivka,9852,46.22472,34.64031
686,nova mayachka,7238,46.59996,33.22707
687,nova vodolaha,13112,49.71901,35.86578
688,novoaydar,0,48.96391,39.00583
689,nova kakhovka,50672,46.75451,33.34864
690,nova borova,5494,50.69296,28.63446
691,novhorodka,6405,48.36506,32.65785
692,novoazovs'k,12200,47.11389,38.08599
693,novytsya,3564,48.96345,24.33542
694,nosivka,15164,50.93152,31.58282
695,nyzy,2819,50.78281,34.78441
696,nova odesa,13547,47.30778,31.78506
697,nova praha,7513,48.56821,32.90273
698,nova ushytsya,4548,48.83716,27.27434
699,novoestoniya,1027,45.4996,34.24298
700,nizhyn,75499,51.04801,31.88688
701,nyzhnya krynka,14253,48.1135,38.16064
702,nelipyno,3403,48.56101,23.03146
703,nikopol,130500,47.57119,34.39637
704,nemyriv,11633,48.97076,28.83779
705,nebyliv,3282,48.81526,24.21657
706,nyzhnya duvanka,2353,49.58464,38.17429
707,neresnytsya,3617,48.11814,23.76588
708,nekrasovka,1044,45.44085,34.98584
709,nevyts’ke,1032,48.67472,22.38813
710,nyzhnye selyshche,3044,48.19911,23.44757
711,nyzhni sirohozy,5797,46.84842,34.38044
712,mykolayivka,3629,47.54135,30.75615
713,netishyn,33063,50.34004,26.64171
714,nikolayevka,2817,44.96213,33.61061
715,nizhnegorskiy,8741,45.44789,34.73839
716,naydenovka,1310,45.27088,34.44898
717,nasypnoe,1581,45.05285,35.29415
718,nedryhayliv,6031,50.83398,33.87626
719,navaria,1493,49.74952,23.92746
720,narodychi,2521,51.20286,29.08228
721,muzhiyevo,2086,48.17959,22.69943
722,mykolaiv,14251,49.52372,23.98522
723,mykolayiv,510840,46.96591,31.9974
724,murovane,4251,49.52143,22.9367
725,mysovoe,429,45.44788,35.83528
726,morskoye,2394,44.82593,34.80314
727,nadvirna,20154,48.6348,24.56936
728,mukacheve,81633,48.43919,22.71779
729,shchyolkino,10593,45.42985,35.8225
730,murovani kurylivtsi,5994,48.72348,27.51892
731,muskatnoye,1333,45.46586,34.54316
732,morshyn,6241,49.15652,23.87232
733,monastyrys’ka,0,49.08909,25.17327
734,moshny,4629,49.51473,31.74757
735,mospyne,11300,47.89081,38.06395
736,molodiya,3691,48.22326,26.02139
737,monastyryshche,9111,48.9909,29.8047
738,molodohvardiys’k,25654,48.34511,39.65244
739,mostys'ka,11000,49.79467,23.15077
740,mohyliv-podilskyi,32500,48.44598,27.7982
741,miusyns’k,6000,48.0775,38.90364
742,mlyniv,8228,50.509,25.61675
743,mirny,4209,45.30788,33.03501
744,mizoch,3553,50.4,26.15
745,molodizhne,1541,48.17732,32.66015
746,molochnoye,2174,45.1996,33.22233
747,mykhaylivka,13216,47.27235,35.22235
748,molodyozhnoye,7597,45.00354,34.05634
749,mleyev,4158,49.34434,31.5339
750,myronivka,12871,49.66007,30.98225
751,mitrofanovka,1226,45.45114,34.67883
752,mityayevo,2085,45.23423,33.7015
753,mynay,2973,48.5888,22.27502
754,mirovka,1335,49.93126,30.62309
755,myrhorod,41377,49.96854,33.60886
756,milove,5418,49.37528,40.13222
757,mikhaylovka,2241,45.52838,34.64058
758,mikulintsy,3457,49.396,25.60518
759,mikhaylovka,3325,45.11325,33.61071
760,michurinskoye,723,45.0743,34.70672
761,melioratyvne,4351,48.63009,35.41558
762,melekyne,1356,46.95957,37.39981
763,mezhvodnoye,2087,45.58751,32.84501
764,merefa,23679,49.82302,36.05069
765,velyki mezhyrichi,2192,50.65431,26.86626
766,mena,12766,51.5217,32.21568
767,volovo,10000,48.52458,23.50563
768,mezenivka,1273,50.63486,35.3134
769,medenychi,3219,49.43055,23.75073
770,mazanka,2564,45.0055,34.25581
771,medvedevo,1707,45.38597,33.004
772,myhiya,1500,48.03719,30.95153
773,myhove,3546,48.15749,25.37904
774,chudey,5058,48.05247,25.62208
775,mezhova,7817,48.25318,36.73468
776,melitopol,158000,46.84891,35.36533
777,zhuravlyovka,1368,45.1768,33.9968
778,medvedevka,1270,45.88389,34.55562
779,medzhybizh,1731,49.43748,27.40487
780,mashivka,3999,49.44308,34.86688
781,mariupol,481626,47.09514,37.54131
782,mar’yanovka,2494,45.44627,34.29474
783,matviyivka,3716,47.07473,35.14444
784,massandra,7280,44.50958,34.18817
785,mayaky,5937,46.41748,30.27413
786,mayskoye,2016,45.59555,34.55213
787,maly mayak,2298,44.61356,34.36469
788,marshintsy,5141,48.21751,26.29133
789,maryevka,591,45.1133,36.23992
790,markova,2896,48.67576,24.41382
791,markivka,7087,49.5229,39.57055
792,mareyka,0,47.94527,37.50544
793,marhanets’,50443,47.63543,34.62769
794,krinichnoye,898,45.02428,34.61202
795,marfovka,713,45.19853,36.09144
796,manevychi,0,51.29405,25.53436
797,manyava,3333,48.65541,24.37537
798,manchenky,1147,49.97982,35.85835
799,mankivka,8596,48.96349,30.33366
800,malyn,27068,50.77233,29.23833
801,yantarnoye,2368,45.43473,34.22134
802,magazinka,1168,45.86312,34.04969
803,malorechenskoye,1313,44.75888,34.55789
804,lyubymivka,5786,46.81063,33.56862
805,makiv,5602,48.79487,26.69188
806,mala tokmachka,2912,47.53563,35.89293
807,makiyivka,376610,48.04782,37.92576
808,mala vyska,12644,48.64308,31.63657
809,malokaterynivka,3174,47.6555,35.25649
810,lyubotyn,22545,49.94691,35.92907
811,mahdalynivka,6567,48.92111,34.91491
812,liutizh,2282,50.6835,30.39324
813,malokakhovka,2862,46.78142,33.4479
814,muromskoye,755,45.09051,34.849
815,mala bilozerka,5717,47.24737,34.93457
816,mala danylivka,7211,50.06354,36.16564
817,makariv,11594,50.46408,29.81128
818,lyubeshiv,0,51.76535,25.5142
819,liuboml,10000,51.22601,24.03727
820,lysyanka,7954,49.25229,30.82946
821,lutuhyne,18830,48.40507,39.22675
822,lugovoye,906,45.23469,35.72202
823,lutovynivka,2000,49.23726,33.9051
824,liubar,2351,49.92045,27.75918
825,lyubech,2550,51.7026,30.65692
826,luchistoye,1180,44.73646,34.40063
827,lysa hora,4312,48.17059,31.10994
828,lviv,717803,49.83826,24.02324
829,lozovoye,1889,44.906,34.16414
830,luhans’ke,2604,48.44574,38.26153
831,lukiv,3043,51.0521,25.40059
832,lozno-oleksandrivka,1149,49.8391,38.74098
833,lozuvatka,6412,48.0571,33.28581
834,luzhany,4520,48.36492,25.77173
835,luhyny,4561,51.08203,28.40057
836,lutsk,213661,50.75932,25.34244
837,luhansk,452000,48.56705,39.31706
838,lozova,62311,48.88937,36.31755
839,lubny,52600,50.01625,32.99694
840,lobanovo,1402,45.77552,34.24236
841,lityn,6804,49.32509,28.08094
842,lokachi,4056,50.737,24.64944
843,lopukhiv,3199,48.36527,23.96382
844,litvinenkovo,1439,45.08648,34.31107
845,lopatyn,3418,50.22022,24.84831
846,letychiv,10669,49.38263,27.63051
847,lysychovo,3068,48.49677,23.28992
848,lyubashivka,9426,47.83716,30.25976
849,lokhvytsya,11950,50.36776,33.26024
850,livadia,1074,44.47021,34.14272
851,lypnyazhka,4272,48.44694,31.07611
852,lypcha,3640,48.26107,23.38336
853,lisovi sorochyntsi,4050,50.6892,32.32919
854,lypova dolyna,5199,50.56428,33.79793
855,lysychans’k,111600,48.90485,38.44207
856,lypovets,0,49.22964,29.05555
857,lyman,4008,49.59769,36.4703
858,lykhivka,2382,48.68735,33.92279
859,lymanske,8600,46.6557,29.96722
860,leninskoye,1725,45.26844,34.05023
861,lazi,3660,48.06667,24.23333
862,lazurne,3127,46.084,32.52955
863,leninskoye,1671,45.25373,35.91969
864,lazeshchyna,4008,48.26852,24.4201
865,lenino,7871,45.29857,35.77708
866,lebedyn,4402,48.96242,31.52696
867,ladyzhyn,21393,48.68496,29.23679
868,ladan,6719,50.51959,32.58178
869,lanchyn,7718,48.55781,24.75622
870,lenina,1228,48.42944,39.14556
871,lanivtsi,8357,49.86328,26.09082
872,kuteynykove,2076,47.81227,38.28822
873,kuznetsovs’k,40000,51.68333,25.86667
874,kyiv,2797553,50.45466,30.5238
875,kvasy,1200,48.14973,24.27995
876,kuty,4160,48.25868,25.17946
877,kuybysheve,7832,47.358,36.64908
878,kuibyshevo,2520,44.629,33.86895
879,kushuhum,7475,47.71278,35.20917
880,kushnytsya,4508,48.43988,23.25816
881,kulynychi,2981,49.98178,36.38283
882,kulykivka,5739,51.37345,31.64661
883,kupjansk,32449,49.71055,37.61517
884,kurakhovo,20700,47.98522,37.2821
885,kryzhanivka,3076,46.56167,30.79487
886,kryzhopil’,9024,48.38289,28.86622
887,krolevets’,24115,51.54775,33.38475
888,kryve ozero,8258,47.95242,30.34928
889,kryvyi rih,652380,47.90966,33.38044
890,kryva hora,3461,51.38495,30.19978
891,krymskoye,1822,45.18836,33.80106
892,krymka,1510,45.70453,34.18782
893,kulykiv,3763,50.31424,24.81757
894,kruty,1330,51.05974,32.10634
895,kryva,2911,48.17234,23.23647
896,krest’yanovka,1450,45.72268,33.93938
897,krynychky,4557,48.37551,34.46701
898,kripens’kyy,7487,48.07709,39.058
899,krinichnaya,4530,48.12899,38.02597
900,kreminna,23538,49.0495,38.21792
901,krayneye,875,45.22993,33.83239
902,kremenchuk,227494,49.06802,33.42041
903,krasnyy lyman,28200,48.98837,37.80225
904,krasnoyarskoye,626,45.50661,33.26641
905,krasnolesye,1061,44.83259,34.23086
906,krasnopillya,8603,50.77458,35.25965
907,krasnopavlivka,7495,49.13643,36.31911
908,kremenets,21000,50.09693,25.72459
909,tatariv,1508,48.34558,24.57836
910,krasnotorka,3061,48.68204,37.53266
911,krasnyi mak,1663,44.64218,33.7813
912,krasnyy kut,2983,48.20138,38.79765
913,krasne,6250,49.91447,24.6134
914,krasnyy luch,90005,48.13954,38.93715
915,krasyatychi,0,51.07636,29.64899
916,krasne,2898,46.13088,32.7691
917,krasnoznamenka,1201,45.28676,34.00036
918,krasnosilka,4406,46.62258,30.77421
919,krasnoperekops’k,30700,45.95716,33.7965
920,krasnokamenka,1051,44.56383,34.28877
921,krasnokuts’k,8008,50.06602,35.16275
922,krasnogvardeyskoye,11134,45.50271,34.30134
923,krymskaya roza,1755,45.05776,34.35631
924,kozel’shchyna,0,49.21682,33.8481
925,krasnaya polyana,1048,45.48241,32.9379
926,krasnoflotskoye,1143,45.31572,34.94756
927,krasnodon,49352,48.29235,39.73921
928,krasnogorka,827,45.24513,35.80739
929,krasnogvardeyskoye,1441,45.18348,34.95066
930,krasnohrad,21426,49.38009,35.44186
931,krasnodon,5787,48.31245,39.56284
932,kozhanka,2584,49.97933,29.73806
933,krasnaya zor’ka,2777,45.13432,34.04015
934,kramators’k,173700,48.72305,37.55629
935,krasnoarmeyskoye,765,45.99103,34.03037
936,krasnoarmiys’k,68263,48.28198,37.17585
937,kozova,9019,49.43544,25.15086
938,krasyliv,19815,49.65186,26.97253
939,krasna,3096,48.57571,24.70027
940,kostryzhivka,2768,48.65455,25.71316
941,kotsyubyns’ke,13934,50.48836,30.32957
942,kotel’nikovo,1373,45.36584,34.02575
943,kostopil’,30500,50.87841,26.45192
944,kivsharivka,19738,49.63096,37.68821
945,koson’,2338,48.25505,22.45597
946,kosmach,6204,48.75089,24.36731
947,kovel,66400,51.21526,24.70867
948,podil’s’k,40664,47.75305,29.53205
949,koryukivka,14215,51.76877,32.24813
950,korotych,4889,49.94737,36.03736
951,kosmach,6054,48.32991,24.82052
952,kosiv,7992,48.31071,25.09575
953,korop,5478,51.56638,32.95861
954,kozelets’,8305,50.91334,31.1214
955,kostyantynivka,2705,47.8266,31.13551
956,kotel’va,12660,50.06864,34.75862
957,korostyshiv,25099,50.31723,29.0563
958,korosten’,65000,50.95937,28.63855
959,korsun-shevchenkivskyi,19000,49.41894,31.25865
960,korniyivka,1137,50.41661,31.46261
961,dobroslav,0,46.8128,30.93934
962,korolevo,7844,48.15247,23.13659
963,kormovoye,1360,45.50001,33.61192
964,kostyantynivka,11540,46.81673,35.42287
965,kolomyia,61781,48.53115,25.03649
966,korets,8446,50.61655,27.16055
967,kornyn,2605,50.0953,29.53581
968,koreiz,5455,44.43374,34.08516
969,kopychyntsi,6774,49.10441,25.91026
970,konotop,91798,51.24032,33.20263
971,kostyantynivka,91259,48.5277,37.7069
972,kopayhorod,1437,48.85917,27.7969
973,kondratyevo,803,45.63125,34.47387
974,komsomol’s’ke,15825,49.59701,36.52618
975,kompaniyivka,4934,48.25115,32.20795
976,koloniya zastav’ye,3642,50.81667,27.03333
977,koloski,1116,45.26936,33.29386
978,komarno,3845,49.62739,23.69952
979,kol’tsovo,697,45.32807,33.44992
980,kulevcha,3882,46.03034,29.93614
981,kolomak,3712,49.83987,35.30441
982,kobelyaky,11692,49.14892,34.19653
983,klembivka,3692,48.39037,28.41092
984,kodyma,9276,48.09875,29.12463
985,kolodenka,3052,50.58561,26.31601
986,kol’chugino,3992,44.94367,33.78865
987,kolochava,4839,48.42851,23.6959
988,kolodeznoye,997,45.22682,34.33698
989,kobleve,2800,46.66499,31.20804
990,kobyzhcha,4332,50.82854,31.50439
991,kochetok,3481,49.88005,36.73723
992,kodra,1685,50.59488,29.55873
993,knyazhichi,5207,50.46275,30.78369
994,klenovyy,2259,48.11934,39.4588
995,klishkivtsi,6272,48.43161,26.26231
996,klevan’,1458,50.74305,25.97628
997,kivertsi,16509,50.83425,25.45821
998,kitsman’,0,48.44357,25.7668
999,klavdiyevo-tarasove,4685,50.58416,30.01134
1000,shirokoye,1491,45.20029,34.05069
1001,kirovskoye,2096,45.54503,33.07769
1002,kirovo,807,45.22106,35.84227
1003,khrystynivka,14056,48.82488,29.96805
1004,kirovskoye,7064,45.22967,35.19987
1005,kiliya,21754,45.45518,29.26367
1006,kirovs’k,40000,48.63751,38.6428
1007,khotiv,4569,50.33069,30.46836
1008,kyrykivka,3202,50.36408,35.1149
1009,khyriv,4419,49.53417,22.85538
1010,kropyvnytskyi,249454,48.5132,32.2597
1011,kyrylivka,1422,46.37592,35.36753
1012,khotyn,10799,48.50693,26.49121
1013,khmelnytskyi,398346,49.42161,26.99653
1014,khorol,14117,49.78367,33.27833
1015,kholmy,3146,51.87096,32.60063
1016,khorosheve,4432,49.85413,36.21704
1017,khust,27999,48.1793,23.29909
1018,khodoriv,10172,49.40993,24.3047
1019,khorostkiv,7034,49.21114,25.92165
1020,khmilnyk,28136,49.55979,27.95754
1021,khymchyn,3124,48.38639,25.14803
1022,kazanka,8010,47.84625,32.82177
1023,komysh-zorya,2321,47.32755,36.69298
1024,katyuzhanka,4046,50.80595,30.13763
1025,kozachi laheri,3587,46.70372,32.9776
1026,kherson,320477,46.65581,32.6178
1027,katerynopil,0,48.9553,30.96823
1028,soledar,12662,48.67935,38.08902
1029,khartsyz’k,64000,48.04243,38.14728
1030,kaniv,25666,49.75182,31.46004
1031,kehychivka,6404,49.28656,35.76153
1032,karapyshi,2960,49.64237,30.79002
1033,kharkiv,1430885,49.98081,36.25272
1034,kozyatyn,25645,49.71431,28.83385
1035,kerch,148932,45.3531,36.47429
1036,kel’mentsi,0,48.46503,26.83457
1037,karlivka,17226,49.45723,35.12975
1038,kaydaki,1619,48.37678,35.12398
1039,kapitanivka,2945,48.91719,31.71671
1040,komyshnya,2539,50.18359,33.68269
1041,kamyshevka vtoraya,3352,46.23333,29.83333
1042,millerovo,3116,48.16829,39.16537
1043,kamin-kashyrskyi,11042,51.62412,24.95864
1044,kamianets-podilskyi,100000,48.6845,26.58559
1045,komyshany,6978,46.63716,32.50719
1046,komyshuvakha,5231,47.71598,35.52981
1047,kamennyye potoki,3516,48.97974,33.52638
1048,kalyny,5627,48.14078,23.8738
1049,kalinino,1640,45.74262,33.77676
1050,kamenka-na-dnepre,0,47.48481,34.41146
1051,kamianytsia,1886,48.69343,22.3957
1052,kalynivka,19315,49.45389,28.52608
1053,kalinino,1120,45.59521,34.2203
1054,kalinovka,2302,45.31658,35.74643
1055,kalcheva,3388,45.73746,28.81441
1056,kalanchak,10673,46.25623,33.2907
1057,kamianka,14547,49.0318,32.10396
1058,kamionka strumitowa,0,50.10655,24.34451
1059,kalush,67698,49.01187,24.37308
1060,kakhovka,36816,46.81371,33.48698
1061,kacha,4282,44.77635,33.54387
1062,kadubivtsi,3161,48.58337,25.76871
1063,mirnoye,9284,44.9833,34.0616
1064,izyumovka,1128,45.04437,35.13717
1065,kaharlyk,13245,49.86233,30.82815
1066,izyaslav,17758,50.11947,26.82125
1067,izobil’noye,991,45.57019,34.94469
1068,izyum,53778,49.20875,37.24849
1069,kayiry,3364,46.94537,33.70591
1070,ivanovka,2055,45.072,33.6613
1071,ivanivka,5036,46.72082,34.55298
1072,yizhivtsi,3240,48.03962,25.66232
1073,ivanivka,3028,46.97569,30.46998
1074,iza,5237,48.21525,23.32867
1075,ivano-frankivsk,204200,48.9215,24.70972
1076,ivankiv,10170,50.93865,29.89426
1077,izmayil,82485,45.34929,28.84079
1078,ivanychi,0,50.63879,24.36003
1079,izobil’noye,2333,44.70276,34.35357
1080,ispas,4278,48.29734,25.27406
1081,ichnya,12417,50.86258,32.39425
1082,chornomors’k,54102,46.30495,30.65478
1083,ilovays’k,17621,47.92498,38.20235
1084,irpin,40789,50.52175,30.25055
1085,hlyboka,8942,48.08971,25.92933
1086,ilychyovo,1858,45.28348,35.73864
1087,hlukhiv,35387,51.67822,33.9162
1088,ishun’,2913,45.92403,33.82364
1089,gvardeyskoye,772,45.58688,33.97681
1090,irshava,9161,48.31667,23.03846
1091,illintsi,10770,49.10479,29.21773
1092,hvizd,3311,48.68517,24.55055
1093,horlivka,278550,48.33576,38.05325
1094,ilyichevo,938,45.24524,35.07127
1095,horodok,17086,49.16374,26.58394
1096,gurzuf,8933,44.54624,34.27841
1097,gvardeyskoye,12589,45.11692,34.02188
1098,huty,1978,50.13322,35.34394
1099,husiatyn,7122,49.0729,26.1848
1100,hupalivka,1347,49.11139,34.73556
1101,hubynykha,5745,48.8098,35.25602
1102,hulyaypole,16442,47.66389,36.25633
1103,grushevka,2269,45.02281,34.97301
1104,hrymayliv,2051,49.33208,26.01112
1105,gresovskiy,9835,45.00804,34.02657
1106,hrebinka,11017,50.11712,32.4361
1107,horodok,15993,49.78465,23.64806
1108,horodnye,4901,45.89083,28.84833
1109,hirs’ke,11046,48.73468,38.49541
1110,lesnovka,2476,45.1535,33.61889
1111,horodnya,13601,51.89085,31.59741
1112,hryshkivtsi,4427,49.93529,28.60383
1113,horokhiv,0,50.50186,24.76149
1114,grishino,1755,45.64219,33.83098
1115,hostomel,12450,50.56841,30.2651
1116,horodyshche,3757,50.63965,26.36573
1117,horodnytsya,5238,50.80697,27.31676
1118,hradyz’k,7400,49.23458,33.13613
1119,hoshcha,5084,50.6003,26.67435
1120,horodyshche,15063,49.28489,31.44513
1121,gornostayevka,2132,45.27819,36.18601
1122,hlevakha,8835,50.27423,30.32706
1123,hnidyn,5400,50.32899,30.71059
1124,golubinka,1433,44.59382,33.91521
1125,holovanivs’k,0,48.384,30.46131
1126,holovyne,1891,50.47118,28.8253
1127,hlobyne,12544,49.38784,33.25959
1128,gaspra,10310,44.43364,34.10297
1129,halych,6256,49.12179,24.72578
1130,horinchovo,2959,48.27076,23.43475
1131,hołoby,4203,51.08651,25.00767
1132,glazovka,1018,45.38792,36.57965
1133,hadyach,22667,50.37112,33.99099
1134,horodenka,9430,48.67274,25.50163
1135,hornostayivka,6762,47.00777,33.72899
1136,heniches’k,21663,46.17592,34.8034
1137,hola prystan’,16102,46.52719,32.52417
1138,hayvoron,15526,48.33958,29.86791
1139,haisyn,24687,48.81143,29.38977
1140,shtormovoye,1124,45.26717,33.08693
1141,frunze,3605,48.66863,38.75444
1142,zakharivka,5007,47.33232,29.75903
1143,frunze,3051,45.02688,33.62956
1144,partenit,6193,44.578,34.34464
1145,feodosiya,68562,45.03677,35.37789
1146,filatovka,516,46.08192,33.7851
1147,foros,1844,44.39214,33.78798
1148,fontanka,6027,46.56646,30.85965
1149,frontovoye,1006,44.66737,33.73841
1150,energodar,55800,47.49865,34.6574
1151,mirnovka,1259,45.69083,34.30966
1152,eskhar,5349,49.79614,36.59047
1153,dzvinogrud,1200,49.73333,24.25
1154,fastiv,51143,50.0767,29.9177
1155,demnya,1602,49.56738,23.94607
1156,dzhankoy,41731,45.71168,34.39274
1157,dzerzhyns’k,41758,48.39869,37.84787
1158,romaniv,0,50.14802,27.93124
1159,dymer,5653,50.78647,30.3026
1160,dvorichna,4322,49.85019,37.68262
1161,dublyany,2086,49.49832,23.38718
1162,druzhba,5220,52.04545,33.94517
1163,drabiv,7011,49.96029,32.1407
1164,druzhba,1586,49.04251,25.45055
1165,domanivka,6517,47.63192,30.98851
1166,dunaivtsi,15836,48.88909,26.85636
1167,dubno,37690,50.41694,25.73432
1168,dudchany,2102,47.18557,33.7639
1169,dubrovytsya,9285,51.57438,26.56503
1170,dunayivtsi,0,49.02078,26.84122
1171,dolyna,20696,48.9733,24.00944
1172,donetsk,1024700,48.023,37.80224
1173,dubove,8902,48.17205,23.88954
1174,drohobych,79406,49.34991,23.50561
1175,dovbysh,4559,50.37332,27.98742
1176,dolyns'ka,34267,48.11041,32.76449
1177,duliby,3533,49.23134,23.81532
1178,dublyany,8154,49.90411,24.08637
1179,drahovo,4262,48.23573,23.54914
1180,dokuchayevs’k,23900,47.75046,37.67936
1181,dobrushino,1213,45.37441,33.36547
1182,dolinnoye,1551,44.7532,33.77766
1183,dovhe,6541,48.36527,23.27904
1184,dobryanka,3250,52.06314,31.18567
1185,dobroye,2976,44.86632,34.22661
1186,dobromyl’,4537,49.57193,22.78629
1187,dobrovelychkivka,0,48.38778,31.18028
1188,dobropillya,35977,48.46147,37.08524
1189,dnipro,1032822,48.4593,35.03865
1190,kamianske,248575,48.51134,34.6021
1191,dniprovka,3873,47.42945,34.61805
1192,dmytrivka,4070,48.7969,32.71645
1193,dniprorudne,20271,47.38169,34.97652
1194,dnipryany,4537,46.74631,33.27288
1195,oleksandriys’ke,5410,48.60767,32.98347
1196,dmytrivka,3170,47.93611,38.93661
1197,dmytrivka,4536,45.97167,28.98639
1198,myrnohrad,49646,48.30523,37.26091
1199,dmitrovka,947,45.48411,35.0588
1200,desna,6906,50.92731,30.76048
1201,derazhnya,10058,49.2692,27.43382
1202,dykan’ka,8000,49.82501,34.52787
1203,dashiv,4233,49.00449,29.42559
1204,dihtyari,1289,50.58264,32.77012
1205,delyatyn,7980,48.52354,24.62466
1206,davydivka,2981,48.12099,25.56461
1207,derhachi,19322,50.10659,36.12112
1208,dalekoye,782,45.66006,33.08059
1209,demydivka,0,50.42814,25.33619
1210,chulakivka,2938,46.35763,32.3514
1211,dachnoye,2628,44.88448,34.98333
1212,debal’tseve,30200,48.34072,38.4049
1213,chuhuyiv,36519,49.83588,36.68803
1214,chortkiv,28855,49.01709,25.79804
1215,krasnoye,1034,45.13999,34.09452
1216,chopovychi,2183,50.83325,28.95334
1217,chudniv,6314,50.05204,28.11745
1218,chutove,6274,49.71043,35.16571
1219,chop,8587,48.43198,22.20555
1220,chynadiyovo,6564,48.48179,22.8217
1221,chkalovo,1098,45.60474,34.83395
1222,chistopolye,1706,45.36541,36.18312
1223,chervonyy oskil,3217,49.17906,37.42593
1224,chyhyryn,11515,49.08376,32.65549
1225,chervone,1800,51.77006,34.06729
1226,pulyny,0,50.46784,28.2713
1227,chornyanka,3363,46.65222,33.35904
1228,chisten’koye,5126,44.88152,34.04716
1229,chervonohryhorivka,6444,47.62298,34.53887
1230,chervona sloboda,9333,49.3789,32.14643
1231,chortomlyk,1275,47.62315,34.14198
1232,chervonohrad,83000,50.39105,24.23514
1233,chervonopartyzans’k,17526,48.07613,39.79618
1234,chervone,2880,49.94975,28.86874
1235,radyvyliv,9928,50.12994,25.25576
1236,chernyatyn,3046,48.66034,25.44832
1237,chernyakhivka,1002,50.21882,31.93082
1238,cherniakhiv,10082,50.45652,28.67018
1239,chornukhyne,7782,48.32339,38.52272
1240,chornukhy,3075,50.26732,32.94196
1241,chernozemnoye,801,45.40808,34.8199
1242,chornorudka,1005,49.8464,29.06062
1243,cherniyiv,3801,48.85658,24.71388
1244,chernivtsi,236250,48.29149,25.94034
1245,chornoliztsi,2965,48.83034,24.89576
1246,chernopolye,1251,45.04399,34.63916
1247,chornobay,8053,49.66644,32.32932
1248,chornobayivka,8954,46.69411,32.55371
1249,chernelytsya,1809,48.81207,25.42477
1250,chernomorskoye,11039,45.50657,32.69776
1251,cherkasy,297568,49.42854,32.06207
1252,chernihivka,0,47.19992,36.16148
1253,chechelnyk,5100,48.21509,29.36728
1254,chelyadinovo,785,45.20729,36.3762
1255,chernihiv,307684,51.50551,31.28487
1256,chaykino,1011,45.81111,34.59538
1257,chemerivtsi,0,49.01179,26.34203
1258,chaykino,1051,45.08223,34.08673
1259,chernivtsi,3065,48.54225,28.11473
1260,chasiv yar,14360,48.59348,37.85724
1261,chaplynka,10224,46.36507,33.54027
1262,bus’k,0,49.96548,24.61227
1263,chapayevka,3502,47.47114,36.34507
1264,burshtyn,14729,49.25867,24.62777
1265,viytivka,4245,48.42603,29.54291
1266,bucha,42279,50.54345,30.21201
1267,bykivka,1911,50.29285,27.98314
1268,budy,6742,49.89133,36.02096
1269,buryn’,11400,51.19912,33.83523
1270,buky,2230,49.09583,30.39641
1271,chapayevka,930,45.28119,34.89428
1272,pozharskoye,1426,44.93554,33.87109
1273,kalynove,3042,49.38179,30.45137
1274,chernyshevo,1866,45.78202,33.42825
1275,chapayeve,2800,49.36625,35.87486
1276,bushtyno,8236,48.05121,23.48579
1277,bystrytsya,1016,48.45931,24.24545
1278,bytkiv,4112,48.62968,24.47398
1279,buchach,12082,49.06254,25.38798
1280,bryukhovychi,5590,49.90467,23.95969
1281,bryanka,51921,48.511,38.67222
1282,broshniv-osada,5548,48.99621,24.19748
1283,brusyliv,5242,50.28449,29.52626
1284,broska,3586,45.37327,28.783
1285,bratslav,5819,48.82257,28.9407
1286,brovary,88506,50.51809,30.80671
1287,boyany,4260,48.27077,26.12624
1288,borova,6589,49.3777,37.62136
1289,borzna,11363,51.25464,32.4269
1290,brylivka,4305,46.42476,33.14721
1291,brody,23239,50.08791,25.15027
1292,brailiv,4964,49.10986,28.17459
1293,borova,7315,50.17625,30.10429
1294,brats’ke,0,47.8636,31.58393
1295,borshchiv,10959,48.80332,26.04347
1296,nikita,2257,44.51564,34.2384
1297,boyarka,34631,50.31911,30.29728
1298,borodianka,12069,50.64484,29.9201
1299,boromlya,4070,50.61839,34.97042
1300,borodino,1758,46.3025,29.24167
1301,boryslav,36704,49.28672,23.43238
1302,bilshivtsi,2500,49.18333,24.75
1303,bogatoye,973,45.02933,34.76732
1304,bobrynets,0,48.05896,32.16641
1305,bohodukhiv,17818,50.16466,35.52765
1306,bohuslav,16498,49.54939,30.8744
1307,bolekhiv,10590,49.06607,23.86435
1308,bohorodchany,7328,48.807,24.53834
1309,bolhrad,16708,45.68262,28.61487
1310,blahodatne,3512,47.87928,38.48492
1311,bibrka,3832,49.64093,24.28874
1312,bobovo,2216,48.07166,22.89585
1313,bohdan,3155,48.04122,24.35222
1314,blahodatne,1263,47.70013,37.41898
1315,blyznyuky,4824,48.85775,36.55505
1316,boryspil’,55000,50.35269,30.95501
1317,blizhneye,2779,45.05694,35.33056
1318,bobrovytsya,11544,50.74693,31.3948
1319,biryukove,4250,47.95631,39.73843
1320,berezovo,2885,48.30943,23.474
1321,donskoye,1997,45.04509,34.21413
1322,bezimenne,2638,47.10716,37.93815
1323,bereznyky,3055,48.51407,23.21982
1324,bilhorod-dnistrovskyi,50201,46.1952,30.34938
1325,berezanka,4090,46.85262,31.38802
1326,bila tserkva,199163,49.80939,30.11209
1327,bezlyudivka,9294,49.87547,36.26539
1328,bershad,0,48.36782,29.51726
1329,berezivka,9128,47.20429,30.9078
1330,berezivka,1618,49.43935,35.70736
1331,beryslav,14880,46.84152,33.42838
1332,berezna,5172,51.5716,31.78456
1333,bereznehuvate,7506,47.30783,32.84993
1334,berezne,0,51.00094,26.75106
1335,berezovka,1308,45.57471,33.34397
1336,berezyne,3658,46.22968,29.20436
1337,бережани,16962,49.45,24.93333
1338,berehove,25741,48.20555,22.64418
1339,berestechko,1830,50.36047,25.11071
1340,velyki berehy,2766,48.23187,22.74591
1341,beregovoye,2377,45.0947,35.43385
1342,berdyansk,118284,46.76644,36.79872
1343,bili oslavy,4351,48.48722,24.70078
1344,berdychiv,86250,49.89928,28.60235
1345,bilozerka,9348,46.6248,32.44251
1346,bilky,7778,48.31503,23.13248
1347,lyakhovtsy,0,50.00263,26.42824
1348,bile,6775,48.49523,39.05051
1349,belz,2386,50.38226,24.00642
1350,bilopillya,17824,51.15016,34.31287
1351,bilokurakyne,7712,49.5341,38.73067
1352,berehomet,8227,48.17882,25.34855
1353,belogorsk,16428,45.05462,34.60185
1354,bilyts’ke,9718,48.40642,37.18111
1355,bilyayivka,13762,46.48319,30.21678
1356,bilohorivka,1142,48.92503,38.24822
1357,bilovods'k,8626,49.20846,39.58975
1358,belinskoye,368,45.37465,36.08212
1359,inkerman,10204,44.61391,33.6098
1360,bayrachky,1065,48.392,38.60174
1361,bashtanka,12657,47.40719,32.43868
1362,sinitsyno,1142,45.23862,35.24659
1363,bila krynytsya,1029,50.63982,29.47041
1364,trudovoye,1423,45.23797,33.75836
1365,bazaliya,2035,49.71267,26.47331
1366,belaya,3728,49.029,25.77059
1367,zaritcha,2178,49.71667,29.23333
1368,baryshivka,10762,50.36098,31.32173
1369,batal’noye,1275,45.19402,35.61583
1370,bekhtery,2909,46.2479,32.29123
1371,baturyn,2964,51.34567,32.87794
1372,barvinkove,12344,48.9097,37.02051
1373,bar,16641,49.07717,27.68256
1374,baranivka,0,50.3,27.66667
1375,banyliv,3748,48.36612,25.34549
1376,baranovka,12220,50.29691,27.6622
1377,balky,5717,47.38336,34.94396
1378,balakliya,31156,49.4627,36.85951
1379,balta,19220,47.93548,29.61982
1380,bakhmach,0,51.20093,32.77451
1381,bagerovo,4315,45.37417,36.29705
1382,bakhmach,23379,51.18144,32.83463
1383,abrikosovo,778,45.69236,34.10156
1384,bakhchisaray,27351,44.75525,33.85782
1385,azovskoye,3656,45.58604,34.5668
1386,balaklava,18649,44.51118,33.59942
1387,auly,4167,48.5666,34.46111
1388,ostanino,1327,45.32731,35.91295
1389,avdiyivka,35826,48.13989,37.74255
1390,antratsyt,61600,48.11503,39.09128
1391,babanka,2460,48.70971,30.44827
1392,artemivs’k,80500,48.59559,37.99987
1393,artemivs’k,7616,48.44061,38.732
1394,askaniya-nova,3309,46.45135,33.86889
1395,artsyz,15761,45.99194,29.41824
1396,apostolove,15828,47.66003,33.71369
1397,arbuzynka,7140,47.90972,31.31963
1398,armyansk,24442,46.10919,33.69206
1399,aromatnoye,1772,45.03678,34.39921
1400,amurskoye,2687,45.27822,34.12823
1401,aleksandrovka,1301,45.57654,34.09947
1402,alupka,7849,44.41808,34.04531
1403,okhtyrka,49818,50.31036,34.89879
1404,antoniny,2592,49.80974,26.87714
1405,alushta,29586,44.67728,34.4097
1406,ananyiv pershyi,0,47.72106,29.94502
1407,amvrosiyivka,21307,47.79348,38.47768
1408,andrushivka,9522,50.02288,29.02023
1409,oleksandrivka,0,48.70837,36.91561
1410,oleksandrivka,5653,46.83826,32.76116
1411,alekseyevka,913,45.58194,33.6298
1412,oleksandrivka,4990,46.32893,30.63481
1413,yakymivka,12353,46.69972,35.15916
1414,aeroflotskiy,1768,45.01816,33.99961
1415,andreyevka,1498,44.81663,33.56313
1416,alchevs’k,116000,48.46893,38.81669
1417,agrarnoye,3754,45.01596,34.05725
1418,lekarstvennoye,1241,44.94194,33.82229
1419,akimovka,1312,45.51981,34.82438
1420,abrikosovka,1079,45.10759,35.10139
1421,malynivka,7502,49.81667,36.73333
1422,adzhamka,3859,48.54245,32.53542
1423,kopashnovo,3010,48.2197,23.48457
1424,orekhovo,3049,45.12944,33.6318
1425,novosel’skoye,2424,45.50357,32.7225
1426,kuchurhan,3183,47.16302,29.78937
1427,okny,5461,47.54044,29.46001
1428,narkevychi,1631,49.51717,26.64178
1429,kirove,3291,47.65311,35.69512
1430,slavutych,25000,51.51964,30.73434
1431,tayirove,1849,46.36313,30.64891
1432,rovnoye,1399,45.35134,34.3523
1433,kashtanovoye,1028,44.8321,34.05912
1434,horishni plavni,51740,49.01018,33.63567
1435,smyga,2800,50.2391,25.76575
1436,orzhiv,4125,50.8,26.12
1437,teplodar,8502,46.50585,30.32521
1438,levadki,1036,44.87083,34.04278
1439,kurskoye,1204,45.02908,34.93623
1440,malen’koye,1546,45.07585,33.99942
1441,mel’nichnoye,746,45.19885,34.42012
1442,uvarovka,1136,45.45108,34.78812
1443,fontany,2681,44.89717,34.07297
1444,izumrudnoye,1905,45.73704,34.41299
1445,komsomol’skoye,4447,45.019,34.03049
1446,beloglinka,1989,44.9949,34.04167
1447,solnechnoye,1015,45.04767,34.0838
1448,trudovoye,2173,44.99133,34.20311
1449,zalesye,1063,44.88687,34.10168
1450,urozhaynoye,3350,45.04522,34.13511
1451,nekrasovo,1026,45.42453,34.28545
1452,konstantinovka,1354,44.85511,34.12069
1453,drofino,779,45.28629,34.61589
1454,razdol’noye,1008,45.36161,34.85482
1455,kostochkovka,892,45.31747,34.67418
1456,vol’noye,1982,45.5657,34.3036
1457,suvorovo,1357,46.08865,33.688
1458,listvennoye,549,45.48086,34.81087
1459,roshchino,928,45.60916,34.37992
1460,pakharevka,1161,45.83472,34.16129
1461,yasnopolyanskoye,723,45.94097,34.35262
1462,kukushkino,1006,45.71924,33.3903
1463,kamenolomnya,1804,45.24804,33.41773
1464,zernovoye,944,45.28838,33.86414
1465,kholmovka,2234,44.6583,33.75456
1466,chervonoye,2007,45.12294,33.68662
1467,shkol’noye,1964,45.05758,33.89737
1468,novoozyornoye,4998,45.38314,33.11715
1469,novofedorovka,5651,45.09473,33.57211
1470,vinnitskoye,1048,44.98129,33.7392
1471,bratskoye,1005,45.8317,33.92151
1472,luganskoye,1129,45.8019,34.23786
1473,geroyskoye,1740,45.13857,33.74675
1474,chernovo,843,45.50833,33.93397
1475,senokosnoye,1058,45.73277,33.51552
1476,sovkhoznoye,1330,45.96005,33.77155
1477,zhuravli,1475,45.25246,33.64104
1478,vladimirovka,1261,45.1476,33.57583
1479,pochetnoye,1247,45.99495,33.76588
1480,kashtany,862,44.8676,33.78995
1481,denyshi,1164,50.21415,28.40395
1482,chervona motovylivka,3499,50.15821,30.07421
1483,zheleznodorozhnoye,970,44.7171,33.80417
1484,pervomayskoye,2880,45.06191,35.16395
1485,prudovoye,1009,44.90424,33.78114
1486,kremidivka,2533,46.73351,30.78472
1487,solnechniy,1718,44.78677,33.61786
1488,novoyavorivs'k,28807,49.93023,23.57357
1489,chabany,7650,50.34071,30.42356
1490,yuzhnoukrains'k,39430,47.81777,31.18263
1491,horenka,5358,50.55731,30.33217
1492,polyushko,1951,44.74219,33.58913
1493,hlyns'k,1698,50.06033,23.89956
1494,aromatnoye,872,44.80373,33.87005
1495,mizhhiria,10000,48.51876,23.50233
1496,sofiyivska borschagivka,6571,50.41005,30.36724
1497,stepove,1549,46.70385,30.07919
1498,kriukivschina,3509,50.37153,30.36861
1499,kulykiv,3963,49.97954,24.07817
1500,prolisky,1852,50.39118,30.78
1501,sovkhoznoye,1109,45.03061,34.01068
1502,kirove,1605,50.3689,31.12066
1503,nova pryluka,1947,49.37488,28.69955
1504,smotrych,1254,48.66149,26.56031
1505,ivanovka,400,45.3743,34.72013
1506,sakharnaya golovka,4146,44.58362,33.64383
1507,husiatyn,1311,49.07015,26.22299
1508,krasnokamenka,1150,44.92446,35.0754
1509,glybochek,0,48.86686,30.79897
1510,yarkoye pole,4914,45.20581,35.19848
1511,aviatorske,2403,48.36714,35.08132
